[
  { "city": "新北市", "long": "121.6739", "lat": "24.91571" },
  { "city": "高雄市", "long": "120.666", "lat": "23.01087" },
  { "city": "臺中市", "long": "120.9417", "lat": "24.23321" },
  { "city": "臺北市", "long": "121.5598", "lat": "25.09108" },
  { "city": "桃園縣", "long": "121.2168", "lat": "24.93759" },
  { "city": "臺南市", "long": "120.2513", "lat": "23.1417" },
  { "city": "彰化縣", "long": "120.4818", "lat": "23.99297" },
  { "city": "屏東縣", "long": "120.62", "lat": "22.54951" },
  { "city": "雲林縣", "long": "120.3897", "lat": "23.75585" },
  { "city": "苗栗縣", "long": "120.9417", "lat": "24.48927" },
  { "city": "嘉義縣", "long": "120.574", "lat": "23.45889" },
  { "city": "新竹縣", "long": "121.1252", "lat": "24.70328" },
  { "city": "南投縣", "long": "120.9876", "lat": "23.83876" },
  { "city": "宜蘭縣", "long": "121.7195", "lat": "24.69295" },
  { "city": "新竹市", "long": "120.9647", "lat": "24.80395" },
  { "city": "基隆市", "long": "121.7081", "lat": "25.10898" },
  { "city": "花蓮縣", "long": "121.3542", "lat": "23.7569" },
  { "city": "嘉義市", "long": "120.4473", "lat": "23.47545" },
  { "city": "臺東縣", "long": "120.9876", "lat": "22.98461" },
  { "city": "金門縣", "long": "118.3186", "lat": "24.43679" },
  { "city": "澎湖縣", "long": "119.6151", "lat": "23.56548" },
  { "city": "連江縣", "long": "119.5397", "lat": "26.19737" }
]
