[{"city": "新北市", "longitude": "121.6739", "latitude": "24.91571"}, {"city": "高雄市", "longitude": "120.666", "latitude": "23.01087"}, {"city": "臺中市", "longitude": "120.9417", "latitude": "24.23321"}, {"city": "臺北市", "longitude": "121.5598", "latitude": "25.09108"}, {"city": "桃園縣", "longitude": "121.2168", "latitude": "24.93759"}, {"city": "臺南市", "longitude": "120.2513", "latitude": "23.1417"}, {"city": "彰化縣", "longitude": "120.4818", "latitude": "23.99297"}, {"city": "屏東縣", "longitude": "120.62", "latitude": "22.54951"}, {"city": "雲林縣", "longitude": "120.3897", "latitude": "23.75585"}, {"city": "苗栗縣", "longitude": "120.9417", "latitude": "24.48927"}, {"city": "嘉義縣", "longitude": "120.574", "latitude": "23.45889"}, {"city": "新竹縣", "longitude": "121.1252", "latitude": "24.70328"}, {"city": "南投縣", "longitude": "120.9876", "latitude": "23.83876"}, {"city": "宜蘭縣", "longitude": "121.7195", "latitude": "24.69295"}, {"city": "新竹市", "longitude": "120.9647", "latitude": "24.80395"}, {"city": "基隆市", "longitude": "121.7081", "latitude": "25.10898"}, {"city": "花蓮縣", "longitude": "121.3542", "latitude": "23.7569"}, {"city": "嘉義市", "longitude": "120.4473", "latitude": "23.47545"}, {"city": "臺東縣", "longitude": "120.9876", "latitude": "22.98461"}, {"city": "金門縣", "longitude": "118.3186", "latitude": "24.43679"}, {"city": "澎湖縣", "longitude": "119.6151", "latitude": "23.56548"}, {"city": "連江縣", "longitude": "119.5397", "latitude": "26.19737"}]